[
{
    "model": "venues.venue",
    "pk": 1,
    "fields": {
        "name": "Straight to Ale",
        "address": "2610 Clinton Avenue",
        "city": "Huntsville",
        "state": "AL",
        "postal_code": "35805",
        "country": "US",
        "time_zone": "America/Chicago",
        "website": "https://straighttoale.com/",
        "facebook_page": "https://www.facebook.com/straighttoale/",
        "twitter_handle": "StraightToAle",
        "instagram_handle": "straighttoale",
        "tap_list_provider": "digitalpour",
        "untappd_url": "https://untappd.com/v/straight-to-ale-brands/5025238",
        "email": "",
        "phone_number": "2568019650",
        "logo_url": "https://straighttoale.com/wp-content/uploads/2019/09/2019_Straighttoale_Footer_logo.png",
        "slug": "straight-to-ale",
        "on_downtown_craft_beer_trail": true,
        "latitude": "34.72094800",
        "longitude": "-86.60709000",
        "twitter_short_location_description": ""
    }
},
{
    "model": "venues.venue",
    "pk": 2,
    "fields": {
        "name": "Madison Taproom",
        "address": "7407 Highway 72 W",
        "city": "Madison",
        "state": "AL",
        "postal_code": "35758",
        "country": "US",
        "time_zone": "America/Chicago",
        "website": "https://www.madisontaproom.com/",
        "facebook_page": "https://www.facebook.com/MadTaps/",
        "twitter_handle": "MadisonTaproom",
        "instagram_handle": "",
        "tap_list_provider": "digitalpour",
        "untappd_url": null,
        "email": "madisyn@madisontaproom.com",
        "phone_number": "2563259992",
        "logo_url": "https://static.wixstatic.com/media/32a46f_b2a00471bb10440393c0fa0742f7ee93~mv2.png/v1/fill/w_210,h_200,al_c,lg_1,q_80/MTR-Logo-Tmp.webp",
        "slug": "madison-taproom",
        "on_downtown_craft_beer_trail": false,
        "latitude": "34.75632700",
        "longitude": "-86.72494500",
        "twitter_short_location_description": ""
    }
},
{
    "model": "venues.venue",
    "pk": 4,
    "fields": {
        "name": "Old Town Beer Exchange",
        "address": "301 Holmes Avenue",
        "city": "Huntsville",
        "state": "AL",
        "postal_code": "35801",
        "country": "US",
        "time_zone": "America/Chicago",
        "website": "http://otbxhsv.com",
        "facebook_page": "https://www.facebook.com/OTBXHSV",
        "twitter_handle": "OTBXHSV",
        "instagram_handle": "otbxhsv",
        "tap_list_provider": "digitalpour",
        "untappd_url": null,
        "email": "",
        "phone_number": "2562707825",
        "logo_url": "http://otbxhsv.com/wp-content/themes/otbx-wp/dist/img/fb.png",
        "slug": "otbx",
        "on_downtown_craft_beer_trail": true,
        "latitude": "34.73339800",
        "longitude": "-86.58495300",
        "twitter_short_location_description": ""
    }
},
{
    "model": "venues.venue",
    "pk": 5,
    "fields": {
        "name": "Rocket City Craft Beer",
        "address": "1079 Balch Road, Suite F",
        "city": "Madison",
        "state": "AL",
        "postal_code": "35758",
        "country": "US",
        "time_zone": "America/Chicago",
        "website": "https://www.rocketcitycraftbeer.com/",
        "facebook_page": "http://www.facebook.com/rocketcitycraftbeer",
        "twitter_handle": "rccbhsv",
        "instagram_handle": "rocketcitycraftbeer",
        "tap_list_provider": "digitalpour",
        "untappd_url": "https://untappd.com/v/rocket-city-craft-beer/7494975",
        "email": "",
        "phone_number": "2564890807",
        "logo_url": "https://static1.squarespace.com/static/5a9c2a4af8370a048dab34c4/t/5b6b4bc18a922d8794f6904b/1533758427380/Rocket-City-Beer-Garden+RGB_Color+jpg.jpg?format=2500w",
        "slug": "rocket-city-craft-beer",
        "on_downtown_craft_beer_trail": false,
        "latitude": "34.74765700",
        "longitude": "-86.76637000",
        "twitter_short_location_description": ""
    }
},
{
    "model": "venues.venue",
    "pk": 6,
    "fields": {
        "name": "Whole Foods",
        "address": "2501 Memorial Parkway SW",
        "city": "Huntsville",
        "state": "AL",
        "postal_code": "35801",
        "country": "US",
        "time_zone": "America/Chicago",
        "website": "https://www.wholefoodsmarket.com/shop/HSV",
        "facebook_page": "",
        "twitter_handle": "",
        "instagram_handle": "",
        "tap_list_provider": "taphunter",
        "untappd_url": "https://untappd.com/v/whole-foods-market/3882150",
        "email": "",
        "phone_number": "2568013741",
        "logo_url": "https://www.wholefoodsmarket.com/sites/default/files/media/Whole%20Foods%20Logo_1.JPG",
        "slug": "whole-foods-hsv",
        "on_downtown_craft_beer_trail": false,
        "latitude": "34.71222600",
        "longitude": "-86.58991600",
        "twitter_short_location_description": ""
    }
},
{
    "model": "venues.venue",
    "pk": 7,
    "fields": {
        "name": "Liquor Express",
        "address": "1812 University Dr NW",
        "city": "Huntsville",
        "state": "AL",
        "postal_code": "35801",
        "country": "US",
        "time_zone": "America/Chicago",
        "website": "http://liquorexpress.net/",
        "facebook_page": "https://www.facebook.com/liquorexpresshsv/",
        "twitter_handle": "LiquorExpressAL",
        "instagram_handle": "liquorexpress",
        "tap_list_provider": "taphunter",
        "untappd_url": null,
        "email": "",
        "phone_number": "",
        "logo_url": "https://untappd.akamaized.net/venuelogos/venue_56705_d99a0ed7_bg_176.png?v=1",
        "slug": "liquor-express",
        "on_downtown_craft_beer_trail": true,
        "latitude": "34.74135200",
        "longitude": "-86.59819700",
        "twitter_short_location_description": "downtown"
    }
},
{
    "model": "venues.venue",
    "pk": 8,
    "fields": {
        "name": "Wagon Wheel",
        "address": "6846 Hwy 431 S.",
        "city": "Owens Cross Roads",
        "state": "AL",
        "postal_code": "35763",
        "country": "US",
        "time_zone": "America/Chicago",
        "website": "http://www.wagonwheelliquorsal.com/",
        "facebook_page": "https://www.facebook.com/Wagon-Wheel-Liquors-325048740219/",
        "twitter_handle": "",
        "instagram_handle": "wagonwheelliquors",
        "tap_list_provider": "taphunter",
        "untappd_url": "https://untappd.com/v/wagon-wheel-liquors/588607",
        "email": "wagonwheelliquors431@gmail.com",
        "phone_number": "2565335155",
        "logo_url": "http://www.wagonwheelliquorsal.com/wp-content/uploads/2017/11/logo.png",
        "slug": "wagon-wheel",
        "on_downtown_craft_beer_trail": false,
        "latitude": "34.65305000",
        "longitude": "-86.48039500",
        "twitter_short_location_description": ""
    }
},
{
    "model": "venues.venue",
    "pk": 9,
    "fields": {
        "name": "The Open Bottle",
        "address": "7061 Highway 72 West",
        "city": "Huntsville",
        "state": "AL",
        "postal_code": "35806",
        "country": "US",
        "time_zone": "America/Chicago",
        "website": "",
        "facebook_page": "https://www.facebook.com/TheOpenBottleMadison/",
        "twitter_handle": "LiquorExpressAL",
        "instagram_handle": "",
        "tap_list_provider": "taphunter",
        "untappd_url": "https://untappd.com/v/the-open-bottle/8190315",
        "email": "",
        "phone_number": "2568018990",
        "logo_url": "https://lh3.googleusercontent.com/1uXqdbfP9x1fndqlwLBWYv5SxAOq5ne5bWBaxFRXwxKmji0O25W7weohMrlfX0haxFQKF3Uv-HnUf7AnTDMHCLE6eT_Qo_Y=s750",
        "slug": "open-bottle",
        "on_downtown_craft_beer_trail": false,
        "latitude": "34.75356000",
        "longitude": "-86.71162200",
        "twitter_short_location_description": "(The Open Bottle)"
    }
},
{
    "model": "venues.venue",
    "pk": 11,
    "fields": {
        "name": "Das Stahl Bierhaus",
        "address": "7914 Memorial Parkway SW",
        "city": "Huntsville",
        "state": "AL",
        "postal_code": "35802",
        "country": "US",
        "time_zone": "America/Chicago",
        "website": "http://www.dsb-hsv.com/",
        "facebook_page": "https://www.facebook.com/DSBHSV/",
        "twitter_handle": "DSBhsv",
        "instagram_handle": "",
        "tap_list_provider": "untappd",
        "untappd_url": "https://untappd.com/v/das-stahl-bierhaus/5569477",
        "email": "contact@dsb-hsv.com",
        "phone_number": "2568581495",
        "logo_url": "https://untappd.akamaized.net/venuelogos/venue_5569477_5165f161_bg_176.png",
        "slug": "das-stahl-bierhaus",
        "on_downtown_craft_beer_trail": false,
        "latitude": "34.66121200",
        "longitude": "-86.57131300",
        "twitter_short_location_description": ""
    }
},
{
    "model": "venues.venue",
    "pk": 12,
    "fields": {
        "name": "The Casual Pint - Providence",
        "address": "2 Off Broadway St NW, Ste 100",
        "city": "Huntsville",
        "state": "AL",
        "postal_code": "35806",
        "country": "US",
        "time_zone": "America/Chicago",
        "website": "https://huntsville.thecasualpint.com/",
        "facebook_page": "https://www.facebook.com/casualpinthsv",
        "twitter_handle": "casualpinthsv",
        "instagram_handle": "casualpinthsv",
        "tap_list_provider": "untappd",
        "untappd_url": "https://untappd.com/v/the-casual-pint-huntsville/7919239",
        "email": "",
        "phone_number": "2562611265",
        "logo_url": "https://untappd.akamaized.net/venuelogos/venue_7919239_5965ac33_bg_176.png",
        "slug": "casual-pint-hsv",
        "on_downtown_craft_beer_trail": false,
        "latitude": "34.75380900",
        "longitude": "-86.69412700",
        "twitter_short_location_description": ""
    }
},
{
    "model": "venues.venue",
    "pk": 13,
    "fields": {
        "name": "Yellowhammer Brewery",
        "address": "2600 Clinton Ave West",
        "city": "Huntsville",
        "state": "AL",
        "postal_code": "35805",
        "country": "US",
        "time_zone": "America/Chicago",
        "website": "https://www.yellowhammerbrewery.com/",
        "facebook_page": "https://www.facebook.com/yellowhammerbrewing/",
        "twitter_handle": "yellowhammerale",
        "instagram_handle": "yellowhammer_brewing",
        "tap_list_provider": "untappd",
        "untappd_url": "https://untappd.com/v/yellowhammer-brewing/56970",
        "email": "",
        "phone_number": "2564893510",
        "logo_url": "https://untappd.akamaized.net/venuelogos/venue_56970_9c7a85ca_bg_176.png",
        "slug": "yellowhammer",
        "on_downtown_craft_beer_trail": true,
        "latitude": "34.72168500",
        "longitude": "-86.60553600",
        "twitter_short_location_description": ""
    }
},
{
    "model": "venues.venue",
    "pk": 14,
    "fields": {
        "name": "Mad Malts Brewing",
        "address": "109 Maple Ave NW",
        "city": "Huntsville",
        "state": "AL",
        "postal_code": "35801",
        "country": "US",
        "time_zone": "America/Chicago",
        "website": "http://madmaltsbrewing.com/",
        "facebook_page": "https://www.facebook.com/MadMaltsBrewing1/",
        "twitter_handle": "madmaltsbrewing",
        "instagram_handle": "",
        "tap_list_provider": "untappd",
        "untappd_url": "https://untappd.com/v/mad-malts/3802051",
        "email": "chris@madmaltsbrewing.com",
        "phone_number": "2565032233",
        "logo_url": "https://utfb-images.untappd.com/logos/9210d47b78cd274d421470d180b242144c08b524.jpg",
        "slug": "mad-malts",
        "on_downtown_craft_beer_trail": true,
        "latitude": "34.74636400",
        "longitude": "-86.58528300",
        "twitter_short_location_description": ""
    }
},
{
    "model": "venues.venue",
    "pk": 15,
    "fields": {
        "name": "The Stem and Stein",
        "address": "10871 County Line Rd, Ste. B",
        "city": "Madison",
        "state": "AL",
        "postal_code": "35758",
        "country": "US",
        "time_zone": "America/Chicago",
        "website": "https://thestemandstein.com/",
        "facebook_page": "https://www.facebook.com/The-Stem-Stein-244857472236858/",
        "twitter_handle": "TheStemAndStein",
        "instagram_handle": "",
        "tap_list_provider": "stemandstein",
        "untappd_url": "https://untappd.com/v/the-stem-and-stein/35784",
        "email": "ali@thestemandstein.com",
        "phone_number": "2563253779",
        "logo_url": "https://hsv-dot-beer.s3.amazonaws.com/venues/png/stem-and-stein-black.png",
        "slug": "stem-and-stein",
        "on_downtown_craft_beer_trail": false,
        "latitude": "34.69143300",
        "longitude": "-86.78591400",
        "twitter_short_location_description": ""
    }
},
{
    "model": "venues.venue",
    "pk": 17,
    "fields": {
        "name": "InnerSpace Brewing",
        "address": "2414 Clinton Avenue West",
        "city": "Huntsville",
        "state": "AL",
        "postal_code": "35805",
        "country": "US",
        "time_zone": "America/Chicago",
        "website": "https://innerspacebrewing.com",
        "facebook_page": "https://www.facebook.com/InnerSpaceBrewing/",
        "twitter_handle": "InnerSpaceBrews",
        "instagram_handle": "",
        "tap_list_provider": "taplist.io",
        "untappd_url": "https://untappd.com/v/innerspace-brewing/7027492",
        "email": "",
        "phone_number": "(256) 489-5599",
        "logo_url": "https://pbs.twimg.com/profile_images/846777797863522304/wJa_aKvb_400x400.jpg",
        "slug": "innerspace-brewing",
        "on_downtown_craft_beer_trail": true,
        "latitude": "34.72248000",
        "longitude": "-86.60418700",
        "twitter_short_location_description": ""
    }
},
{
    "model": "venues.venue",
    "pk": 18,
    "fields": {
        "name": "Big Spring Tavern",
        "address": "200 Westside Square, Suite 60",
        "city": "Huntsville",
        "state": "AL",
        "postal_code": "35801",
        "country": "US",
        "time_zone": "America/Chicago",
        "website": "https://www.bigspringtavern.com",
        "facebook_page": "https://www.facebook.com/bigspringtavern",
        "twitter_handle": "",
        "instagram_handle": "bigspringtavern",
        "tap_list_provider": "digitalpour",
        "untappd_url": null,
        "email": "info@bigspringtavern.com",
        "phone_number": "2565334267",
        "logo_url": "https://static.wixstatic.com/media/af144b_a0938d27568249e8a34cac9817ca234a~mv2_d_1380_1380_s_2.png/v1/fill/w_924,h_920,al_c,q_90,usm_0.66_1.00_0.01/bst%20logo%20transparent.webp",
        "slug": "big-spring-tavern",
        "on_downtown_craft_beer_trail": false,
        "latitude": null,
        "longitude": null,
        "twitter_short_location_description": ""
    }
},
{
    "model": "venues.venue",
    "pk": 19,
    "fields": {
        "name": "Rocket Republic Madison",
        "address": "289 Production Ave",
        "city": "Madison",
        "state": "AL",
        "postal_code": "35758",
        "country": "US",
        "time_zone": "America/Chicago",
        "website": "https://www.rocketrepublicbrewing.com/",
        "facebook_page": "https://www.facebook.com/RocketRepublicBrewing/",
        "twitter_handle": "RRBeer",
        "instagram_handle": "rocketrepubicbrewing",
        "tap_list_provider": "digitalpour",
        "untappd_url": "https://untappd.com/RocketRepublic",
        "email": "info@rocketrepublicbrewing.com",
        "phone_number": "2563254677",
        "logo_url": "https://rocketrepublicbrewing.com/wp-content/uploads/2020/01/rr-logo-white.png",
        "slug": "rocket-republic-madison",
        "on_downtown_craft_beer_trail": false,
        "latitude": null,
        "longitude": null,
        "twitter_short_location_description": ""
    }
},
{
    "model": "venues.venue",
    "pk": 20,
    "fields": {
        "name": "Rocket Republic Downtown Huntsville",
        "address": "617 Meridian St N",
        "city": "Huntsville",
        "state": "AL",
        "postal_code": "35801",
        "country": "US",
        "time_zone": "America/Chicago",
        "website": "https://www.rocketrepublicbrewing.com/",
        "facebook_page": "https://www.facebook.com/RocketRepublicBrewing/",
        "twitter_handle": "RR_Downtown",
        "instagram_handle": "rocketrepubicbrewing",
        "tap_list_provider": "digitalpour",
        "untappd_url": null,
        "email": "info@rocketrepublicbrewing.com",
        "phone_number": "",
        "logo_url": "https://rocketrepublicbrewing.com/wp-content/uploads/2020/01/rr-logo-white.png",
        "slug": "rocket-republic-downtown-huntsville",
        "on_downtown_craft_beer_trail": true,
        "latitude": null,
        "longitude": null,
        "twitter_short_location_description": ""
    }
},
{
    "model": "venues.venue",
    "pk": 21,
    "fields": {
        "name": "Bad Daddy's Burger Bar Huntsville",
        "address": "2317 Memorial Pkwy SW",
        "city": "Huntsville",
        "state": "AL",
        "postal_code": "35801",
        "country": "US",
        "time_zone": "America/Chicago",
        "website": "https://baddaddysburgerbar.com/store/al/huntsville-al",
        "facebook_page": "https://facebook.com/BadDaddysBurgerBar",
        "twitter_handle": "BadDaddysBurger",
        "instagram_handle": "baddaddysburger",
        "tap_list_provider": "beermenus",
        "untappd_url": null,
        "email": "",
        "phone_number": "2569704466",
        "logo_url": "https://hsv-dot-beer.s3.amazonaws.com/venues/png/baddaddys.png",
        "slug": "bad-daddys-burger-bar-huntsville",
        "on_downtown_craft_beer_trail": false,
        "latitude": "34.71462200",
        "longitude": "-86.59030400",
        "twitter_short_location_description": ""
    }
},
{
    "model": "venues.venue",
    "pk": 22,
    "fields": {
        "name": "Beauregard's",
        "address": "3310 Memorial Pkwy SW",
        "city": "Huntsville",
        "state": "AL",
        "postal_code": "35801",
        "country": "US",
        "time_zone": "America/Chicago",
        "website": "https://beaus.us",
        "facebook_page": "https://www.facebook.com/beauwings",
        "twitter_handle": "beauregardshsv",
        "instagram_handle": "beauregardshsv",
        "tap_list_provider": "beermenus",
        "untappd_url": null,
        "email": "info@beaus.us",
        "phone_number": "2564693005",
        "logo_url": "https://hsv-dot-beer.s3.amazonaws.com/venues/png/beauregards.png",
        "slug": "beauregards",
        "on_downtown_craft_beer_trail": false,
        "latitude": "34.69928900",
        "longitude": "-86.58591700",
        "twitter_short_location_description": ""
    }
},
{
    "model": "venues.venueapiconfiguration",
    "pk": 1,
    "fields": {
        "venue": 1,
        "url": null,
        "api_key": "",
        "digital_pour_venue_id": "5761f0a45e002c13703ed811",
        "digital_pour_location_number": 1,
        "untappd_location": null,
        "untappd_theme": null,
        "untappd_categories": "[]",
        "taphunter_location": "",
        "taphunter_excluded_lists": "[]",
        "taplist_io_display_id": "",
        "taplist_io_access_code": "",
        "beermenus_categories": "[]",
        "beermenus_slug": ""
    }
},
{
    "model": "venues.venueapiconfiguration",
    "pk": 2,
    "fields": {
        "venue": 2,
        "url": null,
        "api_key": "",
        "digital_pour_venue_id": "5c7e9f7635272613d8d70727",
        "digital_pour_location_number": 1,
        "untappd_location": null,
        "untappd_theme": null,
        "untappd_categories": "[]",
        "taphunter_location": "",
        "taphunter_excluded_lists": "[]",
        "taplist_io_display_id": "",
        "taplist_io_access_code": "",
        "beermenus_categories": "[]",
        "beermenus_slug": ""
    }
},
{
    "model": "venues.venueapiconfiguration",
    "pk": 4,
    "fields": {
        "venue": 4,
        "url": null,
        "api_key": "",
        "digital_pour_venue_id": "5502506cb3b70304a8f2e0d2",
        "digital_pour_location_number": 1,
        "untappd_location": null,
        "untappd_theme": null,
        "untappd_categories": "[]",
        "taphunter_location": "",
        "taphunter_excluded_lists": "[]",
        "taplist_io_display_id": "",
        "taplist_io_access_code": "",
        "beermenus_categories": "[]",
        "beermenus_slug": ""
    }
},
{
    "model": "venues.venueapiconfiguration",
    "pk": 5,
    "fields": {
        "venue": 5,
        "url": null,
        "api_key": "",
        "digital_pour_venue_id": "5aa1a8135e002c0924805971",
        "digital_pour_location_number": 1,
        "untappd_location": null,
        "untappd_theme": null,
        "untappd_categories": "[]",
        "taphunter_location": "",
        "taphunter_excluded_lists": "[]",
        "taplist_io_display_id": "",
        "taplist_io_access_code": "",
        "beermenus_categories": "[]",
        "beermenus_slug": ""
    }
},
{
    "model": "venues.venueapiconfiguration",
    "pk": 6,
    "fields": {
        "venue": 6,
        "url": null,
        "api_key": "",
        "digital_pour_venue_id": "",
        "digital_pour_location_number": null,
        "untappd_location": null,
        "untappd_theme": null,
        "untappd_categories": "[]",
        "taphunter_location": "5963904507707392",
        "taphunter_excluded_lists": "[]",
        "taplist_io_display_id": "",
        "taplist_io_access_code": "",
        "beermenus_categories": "[]",
        "beermenus_slug": ""
    }
},
{
    "model": "venues.venueapiconfiguration",
    "pk": 7,
    "fields": {
        "venue": 7,
        "url": null,
        "api_key": "",
        "digital_pour_venue_id": "",
        "digital_pour_location_number": null,
        "untappd_location": null,
        "untappd_theme": null,
        "untappd_categories": "[]",
        "taphunter_location": "6200813693698048",
        "taphunter_excluded_lists": "[]",
        "taplist_io_display_id": "",
        "taplist_io_access_code": "",
        "beermenus_categories": "[]",
        "beermenus_slug": ""
    }
},
{
    "model": "venues.venueapiconfiguration",
    "pk": 8,
    "fields": {
        "venue": 8,
        "url": null,
        "api_key": "",
        "digital_pour_venue_id": "",
        "digital_pour_location_number": null,
        "untappd_location": null,
        "untappd_theme": null,
        "untappd_categories": "[]",
        "taphunter_location": "6082279375634432",
        "taphunter_excluded_lists": "[\"Kegs to Go\"]",
        "taplist_io_display_id": "",
        "taplist_io_access_code": "",
        "beermenus_categories": "[]",
        "beermenus_slug": ""
    }
},
{
    "model": "venues.venueapiconfiguration",
    "pk": 9,
    "fields": {
        "venue": 9,
        "url": null,
        "api_key": "",
        "digital_pour_venue_id": "",
        "digital_pour_location_number": null,
        "untappd_location": null,
        "untappd_theme": null,
        "untappd_categories": "[]",
        "taphunter_location": "6032598809837568",
        "taphunter_excluded_lists": "[]",
        "taplist_io_display_id": "",
        "taplist_io_access_code": "",
        "beermenus_categories": "[]",
        "beermenus_slug": ""
    }
},
{
    "model": "venues.venueapiconfiguration",
    "pk": 11,
    "fields": {
        "venue": 11,
        "url": null,
        "api_key": "",
        "digital_pour_venue_id": "",
        "digital_pour_location_number": null,
        "untappd_location": 3884,
        "untappd_theme": 11913,
        "untappd_categories": "[\"Tap List\"]",
        "taphunter_location": "",
        "taphunter_excluded_lists": "[]",
        "taplist_io_display_id": "",
        "taplist_io_access_code": "",
        "beermenus_categories": "[]",
        "beermenus_slug": ""
    }
},
{
    "model": "venues.venueapiconfiguration",
    "pk": 12,
    "fields": {
        "venue": 12,
        "url": null,
        "api_key": "",
        "digital_pour_venue_id": "",
        "digital_pour_location_number": null,
        "untappd_location": 18351,
        "untappd_theme": 69229,
        "untappd_categories": "[\"On Tap\"]",
        "taphunter_location": "",
        "taphunter_excluded_lists": "[]",
        "taplist_io_display_id": "",
        "taplist_io_access_code": "",
        "beermenus_categories": "[]",
        "beermenus_slug": ""
    }
},
{
    "model": "venues.venueapiconfiguration",
    "pk": 13,
    "fields": {
        "venue": 13,
        "url": null,
        "api_key": "",
        "digital_pour_venue_id": "",
        "digital_pour_location_number": null,
        "untappd_location": 5949,
        "untappd_theme": 20074,
        "untappd_categories": "[\"Year-Round Beer\", \"Beer\"]",
        "taphunter_location": "",
        "taphunter_excluded_lists": "[]",
        "taplist_io_display_id": "",
        "taplist_io_access_code": "",
        "beermenus_categories": "[]",
        "beermenus_slug": ""
    }
},
{
    "model": "venues.venueapiconfiguration",
    "pk": 14,
    "fields": {
        "venue": 14,
        "url": null,
        "api_key": "",
        "digital_pour_venue_id": "",
        "digital_pour_location_number": null,
        "untappd_location": 8588,
        "untappd_theme": 30573,
        "untappd_categories": "[\"Favorites\", \"Seasonals\", \"Exclusives\"]",
        "taphunter_location": "",
        "taphunter_excluded_lists": "[]",
        "taplist_io_display_id": "",
        "taplist_io_access_code": "",
        "beermenus_categories": "[]",
        "beermenus_slug": ""
    }
},
{
    "model": "venues.venueapiconfiguration",
    "pk": 15,
    "fields": {
        "venue": 15,
        "url": "https://thestemandstein.com/",
        "api_key": "",
        "digital_pour_venue_id": "",
        "digital_pour_location_number": null,
        "untappd_location": null,
        "untappd_theme": null,
        "untappd_categories": "[]",
        "taphunter_location": "",
        "taphunter_excluded_lists": "[]",
        "taplist_io_display_id": "",
        "taplist_io_access_code": "",
        "beermenus_categories": "[]",
        "beermenus_slug": ""
    }
},
{
    "model": "venues.venueapiconfiguration",
    "pk": 17,
    "fields": {
        "venue": 17,
        "url": null,
        "api_key": "",
        "digital_pour_venue_id": "",
        "digital_pour_location_number": null,
        "untappd_location": null,
        "untappd_theme": null,
        "untappd_categories": "[]",
        "taphunter_location": "",
        "taphunter_excluded_lists": "[]",
        "taplist_io_display_id": "4434",
        "taplist_io_access_code": "5e5b8565-27b7-4cfd-8e52-b7d2b2ca5c63",
        "beermenus_categories": "[]",
        "beermenus_slug": ""
    }
},
{
    "model": "venues.venueapiconfiguration",
    "pk": 18,
    "fields": {
        "venue": 18,
        "url": null,
        "api_key": "",
        "digital_pour_venue_id": "5c80378c3527260e1860a625",
        "digital_pour_location_number": 1,
        "untappd_location": null,
        "untappd_theme": null,
        "untappd_categories": "[]",
        "taphunter_location": "",
        "taphunter_excluded_lists": "[]",
        "taplist_io_display_id": "",
        "taplist_io_access_code": "",
        "beermenus_categories": "[]",
        "beermenus_slug": ""
    }
},
{
    "model": "venues.venueapiconfiguration",
    "pk": 19,
    "fields": {
        "venue": 19,
        "url": null,
        "api_key": "",
        "digital_pour_venue_id": "5d657d943527260064257abf",
        "digital_pour_location_number": 1,
        "untappd_location": null,
        "untappd_theme": null,
        "untappd_categories": "[]",
        "taphunter_location": "",
        "taphunter_excluded_lists": "[]",
        "taplist_io_display_id": "",
        "taplist_io_access_code": "",
        "beermenus_categories": "[]",
        "beermenus_slug": ""
    }
},
{
    "model": "venues.venueapiconfiguration",
    "pk": 20,
    "fields": {
        "venue": 20,
        "url": null,
        "api_key": "",
        "digital_pour_venue_id": "5d657d943527260064257abf",
        "digital_pour_location_number": 2,
        "untappd_location": null,
        "untappd_theme": null,
        "untappd_categories": "[]",
        "taphunter_location": "",
        "taphunter_excluded_lists": "[]",
        "taplist_io_display_id": "",
        "taplist_io_access_code": "",
        "beermenus_categories": "[]",
        "beermenus_slug": ""
    }
},
{
    "model": "venues.venueapiconfiguration",
    "pk": 21,
    "fields": {
        "venue": 21,
        "url": null,
        "api_key": "",
        "digital_pour_venue_id": "",
        "digital_pour_location_number": null,
        "untappd_location": null,
        "untappd_theme": null,
        "untappd_categories": "[]",
        "taphunter_location": "",
        "taphunter_excluded_lists": "[]",
        "taplist_io_display_id": "",
        "taplist_io_access_code": "",
        "beermenus_categories": "[\"on_tap\", \"featured\"]",
        "beermenus_slug": "64594-bad-daddy-s-burger-bar-huntsville"
    }
},
{
    "model": "venues.venueapiconfiguration",
    "pk": 22,
    "fields": {
        "venue": 22,
        "url": null,
        "api_key": "",
        "digital_pour_venue_id": "",
        "digital_pour_location_number": null,
        "untappd_location": null,
        "untappd_theme": null,
        "untappd_categories": "[]",
        "taphunter_location": "",
        "taphunter_excluded_lists": "[]",
        "taplist_io_display_id": "",
        "taplist_io_access_code": "",
        "beermenus_categories": "[\"local\", \"craft_beer\", \"domestic_draft\"]",
        "beermenus_slug": "52478-beauregard-s"
    }
}
]
